{
  "source": "https://guofsyrians.org/unions/",
  "scrapedAt": "2025-10-30T18:54:42.532Z",
  "unions": [
    {
      "name": "اتحاد اطلس",
      "location": "في اسطنبول",
      "city": "إسطنبول"
    },
    {
      "name": "اتحاد اوسكودار",
      "location": "في اسطنبول",
      "city": "إسطنبول"
    },
    {
      "name": "اتحاد محمد الفاتح",
      "location": "في اسطنبول",
      "city": "إسطنبول"
    },
    {
      "name": "اتحاد جراح باشا",
      "location": "في اسطنبول",
      "city": "إسطنبول"
    },
    {
      "name": "اتحاد ايدن",
      "location": "في اسطنبول",
      "city": "إسطنبول"
    },
    {
      "name": "اتحاد كوبتور",
      "location": "في اسطنبول",
      "city": "إسطنبول"
    },
    {
      "name": "اتحاد التنباش",
      "location": "في اسطنبول",
      "city": "إسطنبول"
    },
    {
      "name": "اتحاد باشاك شيهير",
      "location": "في اسطنبول",
      "city": "إسطنبول"
    },
    {
      "name": "اتحاد مدنيات",
      "location": "في اسطنبول",
      "city": "إسطنبول"
    },
    {
      "name": "اتحاد صباح الدين زعيم",
      "location": "في اسطنبول",
      "city": "إسطنبول"
    },
    {
      "name": "اتحاد نيشانتاشي",
      "location": "في اسطنبول",
      "city": "إسطنبول"
    },
    {
      "name": "اتحاد يلدز",
      "location": "في اسطنبول",
      "city": "إسطنبول"
    },
    {
      "name": "اتحاد اريل",
      "location": "في اسطنبول",
      "city": "إسطنبول"
    },
    {
      "name": "اتحاد البيروني",
      "location": "في اسطنبول",
      "city": "إسطنبول"
    },
    {
      "name": "اتحاد ايستينيا",
      "location": "في اسطنبول",
      "city": "إسطنبول"
    },
    {
      "name": "اتحاد جيليشيم",
      "location": "في اسطنبول",
      "city": "إسطنبول"
    },
    {
      "name": "اتحاد باهتشه شيهير",
      "location": "في اسطنبول",
      "city": "إسطنبول"
    },
    {
      "name": "اتحاد مرسين",
      "location": "في مرسين",
      "city": "مرسين"
    },
    {
      "name": "اتحاد تشكوروفا",
      "location": "في اضنة",
      "city": "أضنة"
    },
    {
      "name": "اتحاد اديمان",
      "location": "في اديمان",
      "city": "أديامان"
    },
    {
      "name": "اتحاد دوزجة",
      "location": "في دوزجة",
      "city": "دوزجة"
    },
    {
      "name": "اتحاد ازمير",
      "location": "في ازمير",
      "city": "إزمير"
    },
    {
      "name": "اتحاد سكاريا",
      "location": "في سكاريا",
      "city": "سكاريا"
    },
    {
      "name": "اتحاد كارابوك",
      "location": "في كارابوك",
      "city": "كرابوك"
    },
    {
      "name": "اتحاد اولوداغ",
      "location": "في بورصة",
      "city": "بورصة"
    },
    {
      "name": "اتحاد بورصة التقنية",
      "location": "في بورصة",
      "city": "بورصة"
    },
    {
      "name": "اتحاد عنتاب",
      "location": "في غازي عنتاب",
      "city": "غازي عنتاب"
    },
    {
      "name": "اتحاد سيفاس",
      "location": "في سيفاس",
      "city": "سيفاس"
    },
    {
      "name": "اتحاد مرعش",
      "location": "في كهرمان مرعش",
      "city": "كهرمان مرعش"
    },
    {
      "name": "اتحاد اينونو",
      "location": "في ملاطيا",
      "city": "ملاطيا"
    },
    {
      "name": "اتحاد اسكندرون",
      "location": "في هاتاي",
      "city": "هاتاي"
    },
    {
      "name": "اتحاد الفرات",
      "location": "في ايلازيغ",
      "city": "إيلازيغ"
    },
    {
      "name": "اتحاد اسبارطة",
      "location": "في اسبارطة",
      "city": "اسبارطة"
    },
    {
      "name": "اتحاد كلس",
      "location": "في كلس",
      "city": "كلس"
    },
    {
      "name": "اتحاد قونيا",
      "location": "في قونيا",
      "city": "قونيا"
    },
    {
      "name": "اتحاد بولو",
      "location": "في بولو",
      "city": "بولو"
    },
    {
      "name": "اتحاد انقرة",
      "location": "في انقرة",
      "city": "أنقرة"
    },
    {
      "name": "اتحاد باموكالي",
      "location": "في كوجالي",
      "city": "كوجالي"
    },
    {
      "name": "اتحاد كاستامونو",
      "location": "في كاستامونو",
      "city": "كاستامونو"
    },
    {
      "name": "اتحاد كوجالي",
      "location": "في كوجالي",
      "city": "كوجالي"
    },
    {
      "name": "اتحاد قيصري",
      "location": "في قيصري",
      "city": "قيصري"
    },
    {
      "name": "اتحاد كوتاهيا",
      "location": "في كوتاهيا",
      "city": "كوتاهيا"
    }
  ]
}